[
  {
    "name": "Al-Noor Gold Shop",
    "nameAr": "محل النور للذهب",
    "region": "SANAA",
    "lat": 15.3694,
    "lng": 44.191,
    "address": "Old City, Sanaa",
    "addressAr": "البلدة القديمة، صنعاء",
    "phone": "+967 1 234 567",
    "email": "info@alnoor-gold.ye",
    "openingHours": "9:00 AM - 8:00 PM",
    "openingHoursAr": "9:00 صباحاً - 8:00 مساءً",
    "description": "Trusted gold shop with certified gold and professional service",
    "descriptionAr": "محل ذهب موثوق مع ذهب معتمد وخدمة احترافية",
    "priceMin": 25000,
    "priceMax": 28000,
    "services": [
      "buy_gold",
      "sell_gold",
      "jewelry_repair",
      "custom_design",
      "appraisal"
    ],
    "certified": true,
    "verified": true,
    "trustScore": 92
  },
  {
    "name": "Yemen Gold Market",
    "nameAr": "سوق اليمن للذهب",
    "region": "SANAA",
    "lat": 15.3522,
    "lng": 44.2065,
    "address": "Hadda Street, Sanaa",
    "addressAr": "شارع حدة، صنعاء",
    "phone": "+967 1 234 568",
    "openingHours": "8:00 AM - 9:00 PM",
    "openingHoursAr": "8:00 صباحاً - 9:00 مساءً",
    "description": "Large gold market with competitive prices",
    "descriptionAr": "سوق ذهب كبير بأسعار تنافسية",
    "priceMin": 24500,
    "priceMax": 27500,
    "services": ["buy_gold", "sell_gold", "gold_exchange"],
    "certified": false,
    "verified": true,
    "trustScore": 88
  },
  {
    "name": "Aden Gold Center",
    "nameAr": "مركز عدن للذهب",
    "region": "ADEN",
    "lat": 12.7855,
    "lng": 45.0187,
    "address": "Al-Mansoura, Aden",
    "addressAr": "المنصورة، عدن",
    "phone": "+967 2 345 678",
    "email": "contact@aden-gold.ye",
    "openingHours": "9:00 AM - 7:00 PM",
    "openingHoursAr": "9:00 صباحاً - 7:00 مساءً",
    "description": "Certified gold center with professional appraisal services",
    "descriptionAr": "مركز ذهب معتمد مع خدمات تقييم احترافية",
    "priceMin": 24800,
    "priceMax": 28200,
    "services": ["buy_gold", "sell_gold", "jewelry_repair", "certification"],
    "certified": true,
    "verified": true,
    "trustScore": 85
  }
]
